{
"type": "FeatureCollection",
"name": "Plotboundary",
"crs": { "type": "name", "properties": { "name": "urn:ogc:def:crs:OGC:1.3:CRS84" } },
"features": [
{ "type": "Feature", "properties": { "OBJECTID": 4, "NAME": "BRIDGE", "LAYER": "BRIDGE" }, "geometry": { "type": "Point", "coordinates": [ 81.32152695246279, 18.606452984015803 ] } },
{ "type": "Feature", "properties": { "OBJECTID": 5, "NAME": "BRIDGE", "LAYER": "BRIDGE" }, "geometry": { "type": "Point", "coordinates": [ 81.317509109598092, 18.595345895367636 ] } },
{ "type": "Feature", "properties": { "OBJECTID": 6, "NAME": "CULVERT", "LAYER": "CULVERT" }, "geometry": { "type": "Point", "coordinates": [ 81.334571682697259, 18.585719771429925 ] } },
{ "type": "Feature", "properties": { "OBJECTID": 7, "NAME": "BRIDGE", "LAYER": "BRIDGE" }, "geometry": { "type": "Point", "coordinates": [ 81.322258871928597, 18.590127338601693 ] } },
{ "type": "Feature", "properties": { "OBJECTID": 8, "NAME": "WHS AT GURRAGUBAL JADGUM", "LAYER": "WHS" }, "geometry": { "type": "Point", "coordinates": [ 81.318374206792726, 18.616601294873746 ] } },
{ "type": "Feature", "properties": { "OBJECTID": 9, "NAME": "WHS AT GURRAGUBAL", "LAYER": "WHS" }, "geometry": { "type": "Point", "coordinates": [ 81.314296680090465, 18.614773555345881 ] } },
{ "type": "Feature", "properties": { "OBJECTID": 10, "NAME": "WHS AT TRANSFORMER (PULIYA)", "LAYER": "WHS" }, "geometry": { "type": "Point", "coordinates": [ 81.312573289767229, 18.609735217902823 ] } },
{ "type": "Feature", "properties": { "OBJECTID": 11, "NAME": "WHS AT MUNSAGONDH", "LAYER": "WHS" }, "geometry": { "type": "Point", "coordinates": [ 81.323986688685665, 18.615117720249525 ] } },
{ "type": "Feature", "properties": { "OBJECTID": 12, "NAME": "WHS AT MADASEGONDH", "LAYER": "WHS" }, "geometry": { "type": "Point", "coordinates": [ 81.329657789313529, 18.612622312523705 ] } },
{ "type": "Feature", "properties": { "OBJECTID": 13, "NAME": "CHECKDAM AT KUKALATU", "LAYER": "CHECKDAM" }, "geometry": { "type": "Point", "coordinates": [ 81.321487997892191, 18.606598583239855 ] } },
{ "type": "Feature", "properties": { "OBJECTID": 14, "NAME": "SMALL CHECKDAMS 5 NO'S JADGUM LAND", "LAYER": "CHECKDAM" }, "geometry": { "type": "Point", "coordinates": [ 81.31974965239931, 18.61228786064218 ] } },
{ "type": "Feature", "properties": { "OBJECTID": 15, "NAME": "SMALL CHECKDAMS 5 NO'S MADSEGONDH LAND", "LAYER": "CHECKDAM" }, "geometry": { "type": "Point", "coordinates": [ 81.324487732941208, 18.610416716863497 ] } },
{ "type": "Feature", "properties": { "OBJECTID": 16, "NAME": "WHS REPAIRING AT ARJU TALAB", "LAYER": "WHS" }, "geometry": { "type": "Point", "coordinates": [ 81.338722428173284, 18.593994153333821 ] } },
{ "type": "Feature", "properties": { "OBJECTID": 17, "NAME": "SMALLCHECKDAMS 10 NO'S", "LAYER": "CHECKDAM" }, "geometry": { "type": "Point", "coordinates": [ 81.337624757917467, 18.589117539947345 ] } },
{ "type": "Feature", "properties": { "OBJECTID": 18, "NAME": "WHS AT AVAGATA PARA", "LAYER": "WHS" }, "geometry": { "type": "Point", "coordinates": [ 81.331798898219091, 18.585427167630247 ] } },
{ "type": "Feature", "properties": { "OBJECTID": 19, "NAME": "WHS AT DHIPA", "LAYER": "WHS" }, "geometry": { "type": "Point", "coordinates": [ 81.329461572111285, 18.587059286618828 ] } },
{ "type": "Feature", "properties": { "OBJECTID": 20, "NAME": "WHS AT DHIPA-2", "LAYER": "WHS" }, "geometry": { "type": "Point", "coordinates": [ 81.324908609668739, 18.586980013499883 ] } },
{ "type": "Feature", "properties": { "OBJECTID": 21, "NAME": "WHS AT MARAKAM MADAK", "LAYER": "WHS" }, "geometry": { "type": "Point", "coordinates": [ 81.325547982676966, 18.584217149124449 ] } },
{ "type": "Feature", "properties": { "OBJECTID": 22, "NAME": "CHECKDAM AT MARAKAM MADAK", "LAYER": "CHECKDAM" }, "geometry": { "type": "Point", "coordinates": [ 81.321568634340906, 18.585104824940505 ] } },
{ "type": "Feature", "properties": { "OBJECTID": 23, "NAME": "WHS AT KOSUGONDH", "LAYER": "WHS" }, "geometry": { "type": "Point", "coordinates": [ 81.317668637848001, 18.586896120717995 ] } },
{ "type": "Feature", "properties": { "OBJECTID": 24, "NAME": "CHECKDAM AT KAKA KUYAR", "LAYER": "CHECKDAM" }, "geometry": { "type": "Point", "coordinates": [ 81.32225804986993, 18.589921522890094 ] } },
{ "type": "Feature", "properties": { "OBJECTID": 25, "NAME": "CHECKDAM AT JAHATUM", "LAYER": "CHECKDAM" }, "geometry": { "type": "Point", "coordinates": [ 81.336826645820281, 18.605331378380164 ] } },
{ "type": "Feature", "properties": { "OBJECTID": 26, "NAME": "CHECKDAM AT VIDAP", "LAYER": "CHECKDAM" }, "geometry": { "type": "Point", "coordinates": [ 81.331935976697125, 18.595002476377317 ] } },
{ "type": "Feature", "properties": { "OBJECTID": 27, "NAME": "LBCD-5NO'S", "LAYER": "LBCD" }, "geometry": { "type": "Point", "coordinates": [ 81.331461614117345, 18.593787280520001 ] } },
{ "type": "Feature", "properties": { "OBJECTID": 28, "NAME": "LBCD-5NO'S", "LAYER": "LBCD" }, "geometry": { "type": "Point", "coordinates": [ 81.326039455250438, 18.584147518144448 ] } },
{ "type": "Feature", "properties": { "OBJECTID": 29, "NAME": "RENNOVATION OF PANCHAYAT TALAB", "LAYER": "POND RENNOVATION" }, "geometry": { "type": "Point", "coordinates": [ 81.3083489387258, 18.605895401651079 ] } },
{ "type": "Feature", "properties": { "OBJECTID": 30, "NAME": "RENNOVATION OF CHOTU UNGA POND", "LAYER": "POND RENNOVATION" }, "geometry": { "type": "Point", "coordinates": [ 81.307545153602561, 18.610229427433854 ] } },
{ "type": "Feature", "properties": { "OBJECTID": 31, "NAME": "WHS AT KUNJAGUDEM VEESK", "LAYER": "WHS" }, "geometry": { "type": "Point", "coordinates": [ 81.300654608355771, 18.611595280861156 ] } },
{ "type": "Feature", "properties": { "OBJECTID": 32, "NAME": "WHS AT PILLA VEESK", "LAYER": "WHS" }, "geometry": { "type": "Point", "coordinates": [ 81.310301077860856, 18.611900588352409 ] } },
{ "type": "Feature", "properties": { "OBJECTID": 33, "NAME": "WHS AT NAIKAALK", "LAYER": "WHS" }, "geometry": { "type": "Point", "coordinates": [ 81.305936955201432, 18.613653516181099 ] } },
{ "type": "Feature", "properties": { "OBJECTID": 34, "NAME": "WHS AT TOLPAD", "LAYER": "WHS" }, "geometry": { "type": "Point", "coordinates": [ 81.304299174898105, 18.608916553158835 ] } },
{ "type": "Feature", "properties": { "OBJECTID": 35, "NAME": "WHS AT VAIVKARE", "LAYER": "WHS" }, "geometry": { "type": "Point", "coordinates": [ 81.30123850283907, 18.606698563970145 ] } },
{ "type": "Feature", "properties": { "OBJECTID": 36, "NAME": "WHS AT VAIVKARE-2", "LAYER": "WHS" }, "geometry": { "type": "Point", "coordinates": [ 81.300855412120455, 18.60541957012018 ] } },
{ "type": "Feature", "properties": { "OBJECTID": 37, "NAME": "SMALL CHECKDAMS -5 NO'S", "LAYER": "CHECKDAM" }, "geometry": { "type": "Point", "coordinates": [ 81.309380032813209, 18.596178077969316 ] } },
{ "type": "Feature", "properties": { "OBJECTID": 38, "NAME": "CHECKDAM AT HODSEN TOTO", "LAYER": "CHECKDAM" }, "geometry": { "type": "Point", "coordinates": [ 81.305461276401957, 18.596838854258749 ] } },
{ "type": "Feature", "properties": { "OBJECTID": 39, "NAME": "WHS AT HODSEN TOTO-2", "LAYER": "WHS" }, "geometry": { "type": "Point", "coordinates": [ 81.306626723234331, 18.596348731796269 ] } },
{ "type": "Feature", "properties": { "OBJECTID": 40, "NAME": "WHS AT KUTREM ANDH", "LAYER": "WHS" }, "geometry": { "type": "Point", "coordinates": [ 81.301111644525719, 18.590776719274292 ] } },
{ "type": "Feature", "properties": { "OBJECTID": 41, "NAME": "WHS AT RENGA BHAT", "LAYER": "WHS" }, "geometry": { "type": "Point", "coordinates": [ 81.29760304198858, 18.593329595118984 ] } },
{ "type": "Feature", "properties": { "OBJECTID": 42, "NAME": "WHS AT KUTREM ANDH", "LAYER": "WHS" }, "geometry": { "type": "Point", "coordinates": [ 81.300207176219743, 18.592842706338509 ] } },
{ "type": "Feature", "properties": { "OBJECTID": 43, "NAME": "RENNOVATION OF SUKHDEV POND", "LAYER": "POND RENNOVATION" }, "geometry": { "type": "Point", "coordinates": [ 81.302199680602044, 18.601903173927049 ] } },
{ "type": "Feature", "properties": { "OBJECTID": 44, "NAME": "WHS AT JOGA HOUSE", "LAYER": "WHS" }, "geometry": { "type": "Point", "coordinates": [ 81.305310417838598, 18.600407850124448 ] } },
{ "type": "Feature", "properties": { "OBJECTID": 45, "NAME": "WHS AT OJAR", "LAYER": "WHS" }, "geometry": { "type": "Point", "coordinates": [ 81.332375712291551, 18.603292715832438 ] } },
{ "type": "Feature", "properties": { "OBJECTID": 46, "NAME": "WHS AT PULANGONDH", "LAYER": "WHS" }, "geometry": { "type": "Point", "coordinates": [ 81.327669175454631, 18.604642246249536 ] } },
{ "type": "Feature", "properties": { "OBJECTID": 47, "NAME": "SOLAR WATER TANK AT TEKA PARA KOSHA HOUSE", "LAYER": "SOLAR WATERTANK" }, "geometry": { "type": "Point", "coordinates": [ 81.312942361058276, 18.610096312011784 ] } },
{ "type": "Feature", "properties": { "OBJECTID": 48, "NAME": "SOLAR WATER TANK AT BUDHURAM MARKAM HOUSE", "LAYER": "SOLAR WATERTANK" }, "geometry": { "type": "Point", "coordinates": [ 81.315938777414104, 18.604882520533607 ] } },
{ "type": "Feature", "properties": { "OBJECTID": 49, "NAME": "SOLAR WATER TANK AT SOMUDU BUDHU HOUSE", "LAYER": "SOLAR WATERTANK" }, "geometry": { "type": "Point", "coordinates": [ 81.314939064192615, 18.60386337541793 ] } },
{ "type": "Feature", "properties": { "OBJECTID": 50, "NAME": "COMMUNITY HALL WITH DOME SHED NEAR MELA MAIDHAN", "LAYER": "COMMUNITY HALL" }, "geometry": { "type": "Point", "coordinates": [ 81.311096999522661, 18.605784821123898 ] } },
{ "type": "Feature", "properties": { "OBJECTID": 51, "NAME": "SOLAR WATER TANK AT MADAKAMIRAS ROAD CHOWK", "LAYER": "SOLAR WATERTANK" }, "geometry": { "type": "Point", "coordinates": [ 81.311750078425263, 18.61050906206701 ] } },
{ "type": "Feature", "properties": { "OBJECTID": 52, "NAME": "SOLAR WATER TANK AT BHIMA MANGU HOUSE", "LAYER": "SOLAR WATERTANK" }, "geometry": { "type": "Point", "coordinates": [ 81.311312293413565, 18.607040466109837 ] } },
{ "type": "Feature", "properties": { "OBJECTID": 53, "NAME": "SOLAR WATER TANK AT UNGA BICHA HOUSE", "LAYER": "SOLAR WATERTANK" }, "geometry": { "type": "Point", "coordinates": [ 81.315014776058604, 18.607672031252463 ] } },
{ "type": "Feature", "properties": { "OBJECTID": 54, "NAME": "SOLAR WATER TANK AT PODIYA HURRA HOUSE", "LAYER": "SOLAR WATERTANK" }, "geometry": { "type": "Point", "coordinates": [ 81.316449412216869, 18.607180178291323 ] } },
{ "type": "Feature", "properties": { "OBJECTID": 55, "NAME": "SOLAR WATER TANK AT SAMDU BODDA HOUSE", "LAYER": "SOLAR WATERTANK" }, "geometry": { "type": "Point", "coordinates": [ 81.31851414461525, 18.603238586425483 ] } },
{ "type": "Feature", "properties": { "OBJECTID": 56, "NAME": "SOLAR WATER TANK AT MELA MAIDHAN", "LAYER": "SOLAR WATERTANK" }, "geometry": { "type": "Point", "coordinates": [ 81.310477325115031, 18.605907743163975 ] } },
{ "type": "Feature", "properties": { "OBJECTID": 57, "NAME": "SOLAR WATER TANK AT PRIMERY SCHOOL PATEL PARA", "LAYER": "SOLAR WATERTANK" }, "geometry": { "type": "Point", "coordinates": [ 81.312485882490506, 18.607092144697376 ] } },
{ "type": "Feature", "properties": { "OBJECTID": 58, "NAME": "SOLAR WATER TANK AT BHIMA HUNGA HOUSE", "LAYER": "SOLAR WATERTANK" }, "geometry": { "type": "Point", "coordinates": [ 81.306935233747581, 18.602547383442534 ] } },
{ "type": "Feature", "properties": { "OBJECTID": 59, "NAME": "SOLAR WATER TANK AT PRIMERY SCHOOL VICHA PARA", "LAYER": "SOLAR WATERTANK" }, "geometry": { "type": "Point", "coordinates": [ 81.305598672970291, 18.603878425937523 ] } },
{ "type": "Feature", "properties": { "OBJECTID": 60, "NAME": "SOLAR WATER TANK AT PDS SHOP", "LAYER": "SOLAR WATERTANK" }, "geometry": { "type": "Point", "coordinates": [ 81.304607544296417, 18.60261423063378 ] } },
{ "type": "Feature", "properties": { "OBJECTID": 61, "NAME": "SOLAR WATER TANK AT SAMARU SANU", "LAYER": "SOLAR WATERTANK" }, "geometry": { "type": "Point", "coordinates": [ 81.301995316001992, 18.602703414418787 ] } },
{ "type": "Feature", "properties": { "OBJECTID": 62, "NAME": "SOLAR WATER TANK AT BHIMA GUDI", "LAYER": "SOLAR WATERTANK" }, "geometry": { "type": "Point", "coordinates": [ 81.302291852261177, 18.604810355268125 ] } },
{ "type": "Feature", "properties": { "OBJECTID": 63, "NAME": "SOLAR WATER TANK AT UNGI KUMA HOUSE", "LAYER": "SOLAR WATERTANK" }, "geometry": { "type": "Point", "coordinates": [ 81.303977321575289, 18.604249347559346 ] } },
{ "type": "Feature", "properties": { "OBJECTID": 64, "NAME": "SOLAR TANK AT BUDHURAM MADAKAM HOUSE AT AVGATA PARA", "LAYER": "SOLAR WATERTANK" }, "geometry": { "type": "Point", "coordinates": [ 81.333922092069358, 18.586590214343037 ] } },
{ "type": "Feature", "properties": { "OBJECTID": 65, "NAME": "SOLAR WATER TANK AT SONA MIDIYAMI HOUSE", "LAYER": "SOLAR WATERTANK" }, "geometry": { "type": "Point", "coordinates": [ 81.332698905389108, 18.586385557805571 ] } },
{ "type": "Feature", "properties": { "OBJECTID": 66, "NAME": "SOLAR WATER TANK AT OLD PRIMERY SCHOOL VICHA PARA", "LAYER": "SOLAR WATERTANK" }, "geometry": { "type": "Point", "coordinates": [ 81.333997415654238, 18.583466556973509 ] } },
{ "type": "Feature", "properties": { "OBJECTID": 67, "NAME": "SOLAR WATER TANK AT BHUMA HUNGA HOUSE", "LAYER": "SOLAR WATERTANK" }, "geometry": { "type": "Point", "coordinates": [ 81.332605686138336, 18.583886252357377 ] } },
{ "type": "Feature", "properties": { "OBJECTID": 68, "NAME": "MANDAP WITH DOME SHED AT MIDDLE SCHOOL", "LAYER": "MANDAP" }, "geometry": { "type": "Point", "coordinates": [ 81.307778839774542, 18.606089475408119 ] } },
{ "type": "Feature", "properties": { "OBJECTID": 69, "NAME": "MARKET COMPLEX NEAR BANK", "LAYER": "MARKET COMPLEX" }, "geometry": { "type": "Point", "coordinates": [ 81.31405977344977, 18.605877028587312 ] } },
{ "type": "Feature", "properties": { "OBJECTID": 70, "NAME": "MARKET COMPLEX NEAR PRIMERY SCHOOL VICHA PARA", "LAYER": "MARKET COMPLEX" }, "geometry": { "type": "Point", "coordinates": [ 81.305832523208139, 18.604242237533672 ] } },
{ "type": "Feature", "properties": { "OBJECTID": 71, "NAME": "ANGANWADI NEW BUILDING AT PATEL PARA", "LAYER": "ANGANWADI BUILDING" }, "geometry": { "type": "Point", "coordinates": [ 81.31269141129269, 18.606603789968382 ] } },
{ "type": "Feature", "properties": { "OBJECTID": 72, "NAME": "PANCHAYAT SHED AT PATEL PARA", "LAYER": "DOME SHED" }, "geometry": { "type": "Point", "coordinates": [ 81.313670464168226, 18.605901571015224 ] } },
{ "type": "Feature", "properties": { "OBJECTID": 73, "NAME": "ANGANWADI NEW BUILDING AT SARPANCH PARA", "LAYER": "ANGANWADI BUILDING" }, "geometry": { "type": "Point", "coordinates": [ 81.315295814969957, 18.605658930922715 ] } },
{ "type": "Feature", "properties": { "OBJECTID": 74, "NAME": "NEW TOILETS", "LAYER": "TOILETS" }, "geometry": { "type": "Point", "coordinates": [ 81.315370721664124, 18.605626524636438 ] } },
{ "type": "Feature", "properties": { "OBJECTID": 75, "NAME": "NEW ANGANWADI BUILDING AT SOMA KOTLA HOUSE", "LAYER": "ANGANWADI BUILDING" }, "geometry": { "type": "Point", "coordinates": [ 81.305788010100997, 18.602135779449323 ] } },
{ "type": "Feature", "properties": { "OBJECTID": 76, "NAME": "NEW TIOLETS", "LAYER": "TOILETS" }, "geometry": { "type": "Point", "coordinates": [ 81.305847610578141, 18.602102732971577 ] } },
{ "type": "Feature", "properties": { "OBJECTID": 77, "NAME": "NEW ANGANWADI BUILDING AT LINGA HIDMA HOUSE", "LAYER": "ANGANWADI BUILDING" }, "geometry": { "type": "Point", "coordinates": [ 81.303166312428246, 18.603734538827517 ] } },
{ "type": "Feature", "properties": { "OBJECTID": 78, "NAME": "STREET LIGHTS WITH INSULATED CABLE AT PATELPARA TOTAL", "LAYER": "STREETLIGHTS" }, "geometry": { "type": "Point", "coordinates": [ 81.304992660083769, 18.603657411325258 ] } },
{ "type": "Feature", "properties": { "OBJECTID": 79, "NAME": "STREET LIGHTS WITH INSULATED CABLE AT VICHAPARA TOTAL", "LAYER": "STREETLIGHTS" }, "geometry": { "type": "Point", "coordinates": [ 81.314187546407368, 18.60617197349724 ] } },
{ "type": "Feature", "properties": { "OBJECTID": 80, "NAME": "STREET LIGHTS WITH INSULATED CABLE AT AVGATA PARA TOTAL", "LAYER": "STREETLIGHTS" }, "geometry": { "type": "Point", "coordinates": [ 81.333924387098861, 18.585843114198184 ] } },
{ "type": "Feature", "properties": { "OBJECTID": 81, "NAME": "ANGANWADI NEW BUILDING AT AVGATA PARA", "LAYER": "ANGANWADI BUILDING" }, "geometry": { "type": "Point", "coordinates": [ 81.333786428907601, 18.583468479737096 ] } },
{ "type": "Feature", "properties": { "OBJECTID": 82, "NAME": "NEW TOILETS", "LAYER": "TOILETS" }, "geometry": { "type": "Point", "coordinates": [ 81.333830688472034, 18.583494014967339 ] } },
{ "type": "Feature", "properties": { "OBJECTID": 83, "NAME": "NEW TOILETS", "LAYER": "TOILETS" }, "geometry": { "type": "Point", "coordinates": [ 81.333419677271081, 18.584348960156792 ] } },
{ "type": "Feature", "properties": { "OBJECTID": 84, "NAME": "HIGH MUST LIGHT AT ANGANWADI CHOWK PATEL PARA", "LAYER": "HIGH MUST LIGHT" }, "geometry": { "type": "Point", "coordinates": [ 81.312870165284508, 18.606534977238606 ] } },
{ "type": "Feature", "properties": { "OBJECTID": 85, "NAME": "HIGH MUST LIGHT AT PDS SHOP AT VICHA PARA", "LAYER": "HIGH MUST LIGHT" }, "geometry": { "type": "Point", "coordinates": [ 81.30439764180295, 18.602613807142664 ] } },
{ "type": "Feature", "properties": { "OBJECTID": 86, "NAME": "HIGH MUST LIGHT AT AVGATA PARA NEAR BHUMA HOUSE", "LAYER": "HIGH MUST LIGHT" }, "geometry": { "type": "Point", "coordinates": [ 81.332659847917682, 18.583827241912136 ] } }
]
}
